% program   : RTKLIB ver.2.4.2
% inp file  : /tmp/68182893-5030-49ac-8324-5a7c67408291/Data/raw_201902191436/raw_201902191436.obs
% inp file  : /tmp/68182893-5030-49ac-8324-5a7c67408291/Data/raw_201902191414/raw_201902191414.obs
% inp file  : /tmp/68182893-5030-49ac-8324-5a7c67408291/Data/raw_201902191436/raw_201902191436.nav
% inp file  : /tmp/68182893-5030-49ac-8324-5a7c67408291/Data/raw_201902191436/raw_201902191436.sbs
% obs start : 2019/02/19 14:37:08.0 GPST (week2041 225428.0s)
% obs end   : 2019/02/19 15:37:15.0 GPST (week2041 229035.0s)
% ref pos   : 32.039210041  34.816553703  305.5207
%
% (lat/lon/height=WGS84/ellipsoidal,Q=1:fix,2:float,3:sbas,4:dgps,5:single,6:ppp,ns=# of satellites)
%  GPST                  latitude(deg) longitude(deg)  height(m)   Q  ns   sdn(m)   sde(m)   sdu(m)  sdne(m)  sdeu(m)  sdun(m) age(s)  ratio
2019/03/07 11:08:19.157   32.041449250   34.816069084    57.1309   1   6   6.2565  18.5049  24.1780   7.4584 -19.6609 -10.9075   0.19    4.3
2019/03/07 11:08:20.157   32.041438845   34.815962604    63.4704   2   6   5.7414  17.9534  25.2608   9.1172 -20.9188 -11.1605   0.19    1.4
2019/03/07 11:08:21.157   32.041421335   34.815964492    67.5214   2   5   7.2325  21.9291  29.9290  10.0538 -24.4561 -13.5394   0.19    1.1
2019/03/07 11:08:22.157   32.041381722   34.815806319    85.6887   2   6   8.2772  28.5460  40.2002  14.7625 -33.6841 -17.6786   0.19    1.2
2019/03/07 11:08:23.157   32.041291187   34.815575996   115.3484   1   5  11.3677  39.4312  56.9460  19.9598 -47.3147 -23.4648   0.19    3.5
2019/03/07 11:08:24.157   32.041396184   34.816079607    51.2819   1   5  13.4656  19.1222  25.7963  10.2937 -18.6240  -3.4935   0.19    8.4
2019/03/07 11:08:25.157   32.041317154   34.816028709    47.7221   2   5  10.3911  17.8259  26.4923   8.9383 -21.0213  -6.9074   0.19    1.5
2019/03/07 11:08:26.157   32.041397502   34.815998844    62.3051   2   6   6.2605  20.9451  29.4388  10.7797 -24.6451 -12.8527   0.19    1.1
2019/03/07 11:08:27.157   32.041371070   34.815889920    78.3633   2   6   8.1070  28.2048  39.6079  14.6289 -33.2960 -17.3799   0.19    1.4
2019/03/07 11:08:28.157   32.041323080   34.815697770   104.9263   1   6  10.9651  38.6999  55.0668  20.4067 -46.1515 -24.2584   0.19    3.6
2019/03/07 11:08:29.157   32.041410813   34.816089032    56.0684   2   6   6.5943  18.7131  24.2974   7.1379 -19.5002 -11.1504   0.19    2.8
2019/03/07 11:08:30.157   32.041408740   34.816034515    60.5838   2   6   5.5285  17.7141  25.0537   9.2255 -20.8952 -11.0081   0.19    1.7
2019/03/07 11:08:31.157   32.041401036   34.816051716    64.8612   2   5   6.9683  21.7248  29.5059  10.0552 -24.3225 -13.2365   0.19    1.3
2019/03/07 11:08:32.157   32.041388408   34.816070230    68.9114   2   5   8.9089  29.9597  40.4599  14.1168 -33.8424 -17.9588   0.19    2.9
2019/03/07 11:08:33.157   32.041380505   34.816053305    72.5356   2   5  12.1043  43.3645  59.1690  21.3860 -49.9978 -26.0290   0.19    1.4
2019/03/07 11:08:34.157   32.041344106   34.816307425    67.0704   2   4  11.1208  23.3469  25.5592  -4.2170 -16.7753 -12.2221   0.19    1.4
2019/03/07 11:08:35.157   32.041361021   34.816291425    66.2128   1   4   7.7486  21.3255  25.5113   7.3497 -20.4489 -11.0310   0.19   15.3
2019/03/07 11:08:36.157   32.041370003   34.816275027    65.1714   1   5   8.1188  24.5184  29.8823   9.5762 -24.7101 -12.6893   0.19    6.4
2019/03/07 11:08:37.157   32.041378024   34.815934580    70.9357   2   5   9.8317  28.6512  41.0470  14.5669 -33.9235 -16.9237   0.19    1.0
2019/03/07 11:08:38.157   32.041315578   34.815684909   103.9568   2   5  11.9381  41.0441  58.7592  20.5954 -48.8778 -24.2302   0.19    2.5
2019/03/07 11:08:39.157   32.041331164   34.816232641    60.9322   2   5  10.7906  23.0801  25.6176   4.8467 -16.8570 -10.8891   0.19    1.6
2019/03/07 11:08:40.157   32.041384954   34.816208559    60.1920   1   4   7.6926  21.3962  25.5338   7.3419 -20.3998 -11.0574   0.19    4.8
2019/03/07 11:08:41.157   32.041404984   34.816197450    59.7560   1   4   8.2489  24.6411  29.9126   9.3768 -24.6374 -12.8095   0.19  321.0
2019/03/07 11:08:42.157   32.041413087   34.816188668    59.2613   2   4  10.9550  33.7929  41.3355  13.2515 -34.5342 -17.7162   0.19    1.9
2019/03/07 11:08:43.157   32.041259010   34.816241923    55.3472   2   5  21.3340  27.9245  29.5951  15.2072  -7.3390  10.1788   0.19    2.0
2019/03/07 11:08:44.157   32.041417762   34.816039716    58.1868   1   5   6.9572  17.5882  25.3420   9.4387 -20.9770 -10.3675   0.19    8.8
2019/03/07 11:08:45.157   32.041409971   34.815992966    67.5433   1   5   7.4102  20.4494  29.4339  10.8848 -24.4249 -12.2868   0.19    3.7
2019/03/07 11:08:46.157   32.041375119   34.815879672    83.6763   2   5   9.4435  28.6183  40.6242  14.4543 -33.7460 -16.6625   0.19    1.7
2019/03/07 11:08:47.157   32.041310979   34.815634389   116.8891   2   5  11.9147  40.9386  58.2872  20.6724 -48.6230 -24.2805   0.19    1.4
2019/03/07 11:08:48.157   32.041337084   34.816287987    59.6237   2   5  10.8388  23.1799  25.6074   4.3475 -16.8043 -11.1078   0.19    1.7
2019/03/07 11:08:49.157   32.041425667   34.816096827    54.4415   2   5   7.9950  17.8947  25.5844   9.5536 -20.9923 -10.7237   0.19    1.8
2019/03/07 11:08:50.157   32.041400357   34.816039382    62.2220   2   5   8.0014  20.8116  29.7874  10.8432 -24.5384 -12.2647   0.19    2.0
2019/03/07 11:08:51.157   32.041368290   34.815928719    77.1880   2   5   9.2855  28.1533  40.2495  14.4903 -33.4028 -16.7615   0.19    2.4
2019/03/07 11:08:52.157   32.041313533   34.815700007   108.3642   2   5  11.7942  40.0581  57.2237  20.5063 -47.7042 -24.1200   0.19    1.6
2019/03/07 11:08:53.157   32.041319909   34.816271129    59.1386   2   5  10.5671  22.8765  25.4475   4.8037 -17.1139 -11.0194   0.19    1.4
2019/03/07 11:08:54.157   32.041453990   34.816086352    57.9373   2   6   5.9210  17.8158  25.3203   9.5015 -21.0368 -11.4189   0.19    1.4
2019/03/07 11:08:55.157   32.041433871   34.816001532    69.9588   2   6   6.5107  20.6762  29.2788  10.9969 -24.4384 -13.1354   0.19    1.4
2019/03/07 11:08:56.157   32.041387609   34.815830354    93.1916   2   6   8.3478  27.8140  39.2941  14.7927 -32.9448 -17.6092   0.19    1.4
2019/03/07 11:08:57.157   32.041286335   34.815514139   134.3257   2   5  11.6312  39.2328  55.7209  20.6094 -46.6407 -24.3450   0.19    1.1
2019/03/07 11:08:58.157   32.041245684   34.816244542    56.9013   2   5  19.6972  27.5946  29.5334  16.3197  -7.8762  10.9207   0.19    1.7
2019/03/07 11:08:59.157   32.041384498   34.816038795    62.1811   2   5   7.0500  17.7201  25.3504   9.4120 -20.9097 -10.4642   0.19    1.3
2019/03/07 11:09:00.157   32.041377272   34.815960123    74.9591   2   5   7.5135  20.6281  29.4224  10.9230 -24.3917 -12.3701   0.19    1.1
2019/03/07 11:09:01.157   32.041334524   34.815795026    97.6974   1   5   8.9448  27.4977  39.5577  14.5650 -32.9036 -16.9242   0.19    4.2
2019/03/07 11:09:02.157   32.041262547   34.815391306   154.9144   1   6  11.3168  38.2627  54.5113  20.6142 -45.6570 -24.5166   0.19    9.0
2019/03/07 11:09:03.157   32.041433870   34.816029091    56.6684   2   6   7.7265  18.9434  24.3297   7.6266 -19.4576 -10.7678   0.19    1.1
2019/03/07 11:09:04.157   32.041425502   34.816019163    70.2966   2   6   5.6922  17.6135  24.9840   9.4286 -20.8432 -11.1982   0.19    1.1
2019/03/07 11:09:05.157   32.041407625   34.815928820    84.0162   2   6   6.4099  20.4819  28.9758  10.9578 -24.2495 -13.0012   0.19    1.5
2019/03/07 11:09:06.157   32.041360022   34.815745787   109.3637   2   6   8.3086  27.6000  39.0268  14.7669 -32.7401 -17.5346   0.19    1.4
2019/03/07 11:09:07.157   32.041273341   34.815394753   157.0798   2   6  11.3755  38.7110  54.7366  20.7225 -45.9771 -24.6253   0.19    1.1
2019/03/07 11:09:08.157   32.041251918   34.816239799    56.7927   2   5  19.6199  27.5776  29.5306  16.3716  -7.9014  10.9532   0.19    1.8
2019/03/07 11:09:09.157   32.041402983   34.816071273    62.8764   2   5   6.9796  17.6592  25.3196   9.4644 -20.9113 -10.5141   0.19    1.0
2019/03/07 11:09:10.157   32.041402613   34.816004636    73.6948   2   5   7.4564  20.5381  29.3620  10.9691 -24.3570 -12.4387   0.19    1.1
2019/03/07 11:09:11.157   32.041370006   34.815869331    92.2120   2   5   9.0280  27.6777  39.5895  14.6349 -32.9551 -16.9940   0.19    1.2
2019/03/07 11:09:12.157   32.041299056   34.815591904   129.5701   1   5  11.6098  38.5310  55.4365  20.3389 -46.1646 -24.0275   0.19   10.1
2019/03/07 11:09:13.157   32.041348326   34.816314507    64.4529   2   5  10.2972  22.4938  25.1957   4.8642 -17.5335 -11.0999   0.19    1.0
2019/03/07 11:09:14.157   32.041436573   34.816110548    59.8636   2   5   7.1184  17.7378  25.3930   9.7058 -21.0201 -10.8779   0.19    1.9
2019/03/07 11:09:15.157   32.041410172   34.816034584    69.7296   2   5   7.4934  20.5506  29.4896  11.0254 -24.4331 -12.5418   0.19    1.0
2019/03/07 11:09:16.157   32.041371858   34.815889715    89.2514   1   5   8.9923  27.4881  39.5560  14.6278 -32.8980 -17.0107   0.19    5.4
2019/03/07 11:09:17.157   32.041304053   34.815606785   127.7242   2   5  11.7032  38.8633  55.6948  20.4711 -46.4285 -24.1577   0.19    2.3
2019/03/07 11:09:18.157   32.041350732   34.816315579    63.3676   1   5  10.0926  22.2770  25.0890   5.3255 -17.7341 -10.9794   0.19    7.2
2019/03/07 11:09:19.157   32.041435902   34.816116156    59.0906   1   5   6.9994  17.6915  25.3274   9.7507 -21.0485 -10.8441   0.19    4.5
2019/03/07 11:09:20.157   32.041413048   34.816045378    68.4168   1   5   7.4397  20.4610  29.4204  11.0462 -24.4344 -12.5419   0.19    6.1
2019/03/07 11:09:21.157   32.041394861   34.815888082    91.5138   2   6   8.4003  27.5454  39.1146  14.8696 -32.7628 -17.6580   0.19    1.1
2019/03/07 11:09:22.157   32.041317219   34.815584639   132.2312   2   6  11.4529  38.3823  54.4281  20.7249 -45.6648 -24.6416   0.19    1.3
2019/03/07 11:09:23.157   32.041277956   34.816248703    55.6724   2   5  19.6028  27.5708  29.5300  16.3878  -7.9092  10.9604   0.19    1.9
2019/03/07 11:09:24.157   32.041407381   34.816098928    59.6008   2   5   6.9941  17.6123  25.2938   9.5103 -20.9053 -10.5600   0.19    1.2
2019/03/07 11:09:25.157   32.041402303   34.816040583    68.5126   2   5   7.4792  20.4663  29.3138  11.0076 -24.3236 -12.4913   0.19    1.7
2019/03/07 11:09:26.157   32.041371511   34.815920041    84.7916   1   5   9.0270  27.3897  39.4058  14.6423 -32.7764 -17.0279   0.19   11.9
2019/03/07 11:09:27.157   32.041327275   34.815670203   120.1041   2   6  11.4714  38.3994  54.4988  20.7463 -45.7060 -24.6681   0.19    1.3
2019/03/07 11:09:28.157   32.041453733   34.816037014    56.3086   2   6   7.5955  18.8333  24.2372   7.7500 -19.5523 -10.7894   0.19    1.7
2019/03/07 11:09:29.157   32.041435110   34.816072482    65.7180   2   6   5.7100  17.5385  24.9322   9.5225 -20.8266 -11.2503   0.19    1.1
2019/03/07 11:09:30.157   32.041422516   34.816014650    73.8426   2   6   6.4564  20.3546  28.8883  11.0416 -24.1769 -13.0629   0.19    1.2
2019/03/07 11:09:31.157   32.041395679   34.815905524    88.7112   2   6   8.3820  27.3625  38.8228  14.8258 -32.5404 -17.5933   0.19    1.1
2019/03/07 11:09:32.157   32.041338969   34.815691567   117.1877   2   6  11.4493  38.1962  54.1905  20.6893 -45.4595 -24.5992   0.19    1.5
2019/03/07 11:09:33.157   32.041465417   34.816064894    57.5654   2   6   6.7801  18.9115  24.1158   7.4435 -19.5940 -11.1882   0.19    1.1
2019/03/07 11:09:34.157   32.041435858   34.816070580    65.6648   2   6   5.7162  17.5255  24.9150   9.5420 -20.8175 -11.2692   0.19    1.0
2019/03/07 11:09:35.157   32.041409043   34.816013666    72.3109   2   5   7.3836  20.3338  29.1017  11.0147 -24.1783 -12.5627   0.19    2.9
2019/03/07 11:09:36.157   32.041372253   34.815896426    87.5959   2   5   9.0453  27.3968  39.3012  14.6327 -32.6952 -17.0096   0.19    1.2
2019/03/07 11:09:37.157   32.041306231   34.815634223   123.0361   2   5  11.7078  38.4987  55.2330  20.4333 -46.0326 -24.1317   0.19    1.7
2019/03/07 11:09:38.157   32.041293748   34.816018300    47.2130   2   6  14.6937  19.4404  25.7841  10.7079 -18.5159  -2.4565   0.19    1.4
2019/03/07 11:09:39.157   32.041437001   34.816055559    68.2379   2   6   5.7324  17.5368  24.9513   9.5453 -20.8427 -11.2649   0.19    2.2
2019/03/07 11:09:40.157   32.041426347   34.815979380    79.5515   1   6   6.4715  20.2501  28.8496  11.1102 -24.1459 -13.0963   0.19    5.3
2019/03/07 11:09:41.157   32.041393365   34.815840817    98.6570   2   6   8.4168  27.3072  38.7730  14.8532 -32.4919 -17.6246   0.19    1.4
2019/03/07 11:09:42.157   32.041336454   34.815597429   131.8851   2   6  11.4896  38.0563  54.0351  20.6923 -45.3145 -24.6061   0.19    1.2
2019/03/07 11:09:43.157   32.041335642   34.816036637    53.1246   2   6  14.7047  19.4219  25.7698  10.7050 -18.5363  -2.4988   0.19    2.5
2019/03/07 11:09:44.157   32.041456659   34.816063860    68.9808   2   6   5.7427  17.5275  24.9446   9.5601 -20.8379 -11.2789   0.19    1.5
2019/03/07 11:09:45.157   32.041445864   34.815997125    78.7682   2   6   6.5097  20.3218  28.8606  11.1016 -24.1557 -13.1208   0.19    1.0
2019/03/07 11:09:46.157   32.041409476   34.815857837    97.6590   2   6   8.4350  27.2773  38.7440  14.8665 -32.4641 -17.6403   0.19    1.6
2019/03/07 11:09:47.157   32.041332098   34.815553597   138.7915   2   6  11.5101  37.9904  53.9603  20.6964 -45.2453 -24.6131   0.19    1.4
2019/03/07 11:09:48.157   32.041317234   34.816044925    53.6853   1   6  14.4841  19.3446  25.7338  10.7203 -18.5974  -2.6512   0.19   12.3
2019/03/07 11:09:49.157   32.041451612   34.816039168    72.9458   2   6   5.7538  17.5187  24.9382   9.5747 -20.8331 -11.2932   0.19    1.2
2019/03/07 11:09:50.157   32.041430788   34.815954079    84.9371   1   6   6.5034  20.2314  28.8284  11.1356 -24.1259 -13.1282   0.19    3.4
2019/03/07 11:09:51.157   32.041386933   34.815795848   106.0788   2   6   8.4537  27.2489  38.7160  14.8798 -32.4374 -17.6564   0.19    1.8
2019/03/07 11:09:52.157   32.041308913   34.815505663   144.9044   1   6  11.4977  37.6376  53.6516  20.6252 -44.9245 -24.5420   0.19   30.4
2019/03/07 11:09:53.157   32.041314118   34.816050353    50.2441   2   6  14.7540  19.4167  25.7544  10.7307 -18.5521  -2.4718   0.19    1.6
2019/03/07 11:09:54.157   32.041446437   34.816065405    68.9277   1   6   5.7321  17.4692  24.9217   9.6178 -20.8365 -11.2931   0.19    5.1
2019/03/07 11:09:55.157   32.041431272   34.815995982    78.6279   2   6   6.5382  20.2928  28.8365  11.1294 -24.1332 -13.1513   0.19    1.5
2019/03/07 11:09:56.157   32.041395985   34.815866174    96.0718   2   6   8.4727  27.2220  38.6889  14.8932 -32.4115 -17.6728   0.19    1.0
2019/03/07 11:09:57.157   32.041326051   34.815644511   124.7140   2   5  11.7524  38.0578  54.4554  20.5113 -45.4632 -24.2670   0.19    1.9
2019/03/07 11:09:58.157   32.041283144   34.816248765    53.2445   2   5  19.7079  27.5821  29.5339  16.3367  -7.8837  10.9152   0.19    1.9
2019/03/07 11:09:59.157   32.041428236   34.816117521    59.3156   2   5   7.0437  17.5441  25.2481   9.6091 -20.8769 -10.6773   0.19    1.4
2019/03/07 11:10:00.157   32.041422883   34.816057598    68.4151   2   5   7.5451  20.3577  29.2243  11.1050 -24.2500 -12.6220   0.19    2.1
2019/03/07 11:10:01.157   32.041398196   34.815923568    87.4424   2   6   8.5302  27.2954  38.8194  14.9614 -32.5103 -17.7528   0.19    2.1
2019/03/07 11:10:02.157   32.041324015   34.815673694   120.2312   2   5  11.8622  38.0226  54.4042  20.5569 -45.4190 -24.2993   0.19    1.3
2019/03/07 11:10:03.157   32.041305705   34.816025225    44.7612   2   6  14.8252  19.4313  25.7475  10.7746 -18.5523  -2.3734   0.19    1.2
2019/03/07 11:10:04.157   32.041440572   34.816093348    64.0232   2   6   5.7906  17.4949  24.9199   9.6171 -20.8180 -11.3374   0.19    1.5
2019/03/07 11:10:05.157   32.041433749   34.816033489    72.7993   1   6   6.5513  20.2033  28.7968  11.1737 -24.0959 -13.1760   0.19    3.9
2019/03/07 11:10:06.157   32.041400195   34.815909241    89.3703   1   6   8.4982  27.0554  38.5776  14.9154 -32.2891 -17.6913   0.19    3.0
2019/03/07 11:10:07.157   32.041333162   34.815641761   125.5612   1   6  11.5698  37.5142  53.4909  20.6579 -44.7834 -24.5846   0.19    3.1
2019/03/07 11:10:08.157   32.041306178   34.816030565    45.7427   2   6  14.8615  19.4372  25.7433  10.7948 -18.5537  -2.3284   0.19    1.8
2019/03/07 11:10:09.157   32.041445635   34.816078363    66.4581   2   6   5.8034  17.4874  24.9140   9.6308 -20.8128 -11.3523   0.19    1.1
2019/03/07 11:10:10.157   32.041424491   34.815993037    78.2286   1   6   6.5674  20.1939  28.7864  11.1863 -24.0858 -13.1920   0.19    3.1
2019/03/07 11:10:11.157   32.041385216   34.815841473    98.6354   2   6   8.5313  27.1469  38.6114  14.9342 -32.3378 -17.7231   0.19    2.1
2019/03/07 11:10:12.157   32.041313396   34.815565305   135.7496   2   6  11.6203  37.7033  53.6252  20.7292 -44.9385 -24.6615   0.19    1.2
2019/03/07 11:10:13.157   32.041313414   34.816045758    45.1125   2   6  14.9000  19.4443  25.7397  10.8161 -18.5540  -2.2773   0.19    2.5
2019/03/07 11:10:14.157   32.041450995   34.816086323    65.4551   2   6   5.8164  17.4801  24.9081   9.6444 -20.8076 -11.3673   0.19    1.2
2019/03/07 11:10:15.157   32.041432715   34.816005167    76.7689   2   6   6.5983  20.2413  28.7908  11.1836 -24.0898 -13.2135   0.19    1.1
2019/03/07 11:10:16.157   32.041388338   34.815848476    97.6168   2   6   8.5510  27.1231  38.5863  14.9479 -32.3141 -17.7400   0.19    1.3
2019/03/07 11:10:17.157   32.041305281   34.815529935   140.5096   2   6  11.6431  37.6510  53.5630  20.7371 -44.8819 -24.6727   0.19    1.0
2019/03/07 11:10:18.157   32.041305945   34.816061367    45.4869   2   6  14.9403  19.4525  25.7364  10.8381 -18.5536  -2.2211   0.19    1.0
2019/03/07 11:10:19.157   32.041450109   34.816075496    67.0493   2   6   5.8296  17.4729  24.9023   9.6579 -20.8023 -11.3824   0.19    1.2
2019/03/07 11:10:20.157   32.041430145   34.815984589    79.8306   2   6   6.6137  20.2292  28.7797  11.1969 -24.0791 -13.2292   0.19    1.6
2019/03/07 11:10:21.157   32.041387820   34.815817137   102.6487   2   6   8.5708  27.0998  38.5616  14.9616 -32.2907 -17.7570   0.19    1.3
2019/03/07 11:10:22.157   32.041303718   34.815485962   147.5526   2   6  11.6661  37.5999  53.5019  20.7454 -44.8263 -24.6843   0.19    1.0
2019/03/07 11:10:23.157   32.041317979   34.816075534    49.5202   2   6  14.9820  19.4613  25.7334  10.8608 -18.5527  -2.1606   0.19    1.4
2019/03/07 11:10:24.157   32.041458884   34.816068649    69.1910   2   6   5.8430  17.4659  24.8965   9.6713 -20.7970 -11.3976   0.19    1.1
2019/03/07 11:10:25.157   32.041441103   34.815972045    83.1320   2   6   6.6291  20.2173  28.7686  11.2101 -24.0685 -13.2448   0.19    1.8
2019/03/07 11:10:26.157   32.041392063   34.815782594   108.8975   2   6   8.5908  27.0770  38.5371  14.9753 -32.2677 -17.7741   0.19    1.1
2019/03/07 11:10:27.157   32.041291122   34.815398004   160.7960   2   6  11.6893  37.5497  53.4417  20.7538 -44.7718 -24.6962   0.19    2.8
2019/03/07 11:10:28.157   32.041310370   34.816090117    51.8131   2   6  15.0250  19.4707  25.7306  10.8838 -18.5513  -2.0957   0.19    1.3
2019/03/07 11:10:29.157   32.041461120   34.816048596    73.0190   2   6   5.8565  17.4590  24.8907   9.6846 -20.7916 -11.4128   0.19    2.1
2019/03/07 11:10:30.157   32.041439841   34.815942569    88.1408   2   6   6.6447  20.2056  28.7576  11.2233 -24.0579 -13.2605   0.19    1.2
2019/03/07 11:10:31.157   32.041384505   34.815732977   116.5282   2   6   8.6108  27.0545  38.5130  14.9890 -32.2448 -17.7913   0.19    1.1
2019/03/07 11:10:32.157   32.041282829   34.815350525   167.9517   1   6  11.6909  37.3098  53.2277  20.7125 -44.5512 -24.6565   0.19    3.3
2019/03/07 11:10:33.157   32.041314748   34.816071389    51.6868   2   6  15.0691  19.4805  25.7280  10.9073 -18.5496  -2.0267   0.19    2.8
2019/03/07 11:10:34.157   32.041465600   34.816057949    72.2724   1   6   5.8483  17.4246  24.8783   9.7175 -20.7916 -11.4186   0.19    7.4
2019/03/07 11:10:35.157   32.041445899   34.815963881    85.4126   1   6   6.6480  20.1464  28.7342  11.2494 -24.0356 -13.2717   0.19    3.1
2019/03/07 11:10:36.157   32.041393846   34.815784416   109.3235   2   6   8.6309  27.0324  38.4890  15.0027 -32.2223 -17.8084   0.19    1.1
2019/03/07 11:10:37.157   32.041306835   34.815457137   153.3362   2   6  11.7360  37.4522  53.3240  20.7714 -44.6652 -24.7206   0.19    1.6
2019/03/07 11:10:38.157   32.041315894   34.816045422    50.2521   2   6  15.1141  19.4906  25.7256  10.9310 -18.5477  -1.9534   0.19    2.1
2019/03/07 11:10:39.157   32.041465833   34.816063479    71.2573   1   6   5.8629  17.4189  24.8729   9.7300 -20.7860 -11.4342   0.19    4.5
2019/03/07 11:10:40.157   32.041446970   34.815980505    82.8514   2   6   6.6760  20.1826  28.7358  11.2494 -24.0369 -13.2920   0.19    1.4
2019/03/07 11:10:41.157   32.041404064   34.815829642   102.9320   2   6   8.6511  27.0106  38.4652  15.0164 -32.1999 -17.8256   0.19    1.3
2019/03/07 11:10:42.157   32.041327137   34.815534339   142.8083   2   6  11.7596  37.4046  53.2663  20.7805 -44.6130 -24.7331   0.19    1.0
2019/03/07 11:10:43.157   32.041322015   34.816047492    48.6711   2   6  15.1600  19.5011  25.7232  10.9551 -18.5455  -1.8754   0.19    2.4
2019/03/07 11:10:44.157   32.041466712   34.816078882    68.7374   2   6   5.8978  17.4386  24.8737   9.7240 -20.7752 -11.4587   0.19    1.3
2019/03/07 11:10:45.157   32.041451716   34.816006963    78.8435   2   6   6.6918  20.1713  28.7250  11.2623 -24.0264 -13.3077   0.19    1.6
2019/03/07 11:10:46.157   32.041412959   34.815876523    96.0363   2   6   8.6713  26.9890  38.4416  15.0301 -32.1777 -17.8429   0.19    1.5
2019/03/07 11:10:47.157   32.041337662   34.815604566   132.3651   2   6  11.7833  37.3576  53.2092  20.7897 -44.5614 -24.7458   0.19    2.0
2019/03/07 11:10:48.157   32.041329043   34.816081737    49.3514   1   6  15.0827  19.4879  25.7123  10.9964 -18.5591  -1.8543   0.19    4.6
2019/03/07 11:10:49.157   32.041459570   34.816085317    66.8903   1   6   5.8923  17.4073  24.8621   9.7548 -20.7745 -11.4655   0.19    3.1
2019/03/07 11:10:50.157   32.041441841   34.816010676    77.1693   2   6   6.7076  20.1601  28.7143  11.2753 -24.0159 -13.3235   0.19    1.9
2019/03/07 11:10:51.157   32.041399671   34.815864855    96.5662   2   6   8.6916  26.9676  38.4182  15.0438 -32.1556 -17.8601   0.19    1.1
2019/03/07 11:10:52.157   32.041326819   34.815587043   134.1138   2   6  11.8070  37.3111  53.1527  20.7990 -44.5103 -24.7587   0.19    1.3
2019/03/07 11:10:53.157   32.041255560   34.816100580    36.5857   1   5  17.8250  20.4763  26.1602  11.7718 -17.7496   4.5032   0.19    3.2
2019/03/07 11:10:54.157   32.041288231   34.816146200    41.0909   2   6  11.6213  17.4631  26.5300   9.5511 -20.8940  -6.4174   0.19    1.2
2019/03/07 11:10:55.157   32.041469538   34.816089286    67.3094   2   6   6.4455  20.3209  28.8800  11.3958 -24.2049 -13.6040   0.19    2.8
2019/03/07 11:10:56.157   32.041408034   34.815886000    94.1589   2   6   8.7622  26.9708  38.4007  15.1021 -32.1499 -17.9195   0.19    1.6
2019/03/07 11:10:57.157   32.041313001   34.815567987   136.1224   2   6  11.8105  37.2509  53.0861  20.7897 -44.4472 -24.7534   0.19    1.7
2019/03/07 11:10:58.157   32.041304962   34.816151764    40.3900   2   6  15.2194  19.2602  25.5979  10.7905 -18.7534  -2.5529   0.19    1.5
2019/03/07 11:10:59.157   32.041481495   34.816137256    60.7662   2   6   5.5577  17.4173  24.7716   9.7844 -20.7484 -11.6905   0.19    2.0
2019/03/07 11:11:00.157   32.041458752   34.816055289    71.8500   2   6   6.4001  20.1160  28.5987  11.3002 -23.9654 -13.4929   0.19    1.4
2019/03/07 11:11:01.157   32.041416056   34.815898551    92.9490   2   6   8.5315  26.8798  38.2116  15.1093 -32.0341 -18.0292   0.19    1.2
2019/03/07 11:11:02.157   32.041337855   34.815610942   131.6595   2   6  11.7637  37.0987  52.7371  20.8662 -44.2216 -24.8889   0.19    1.3
2019/03/07 11:11:03.157   32.041298944   34.816134840    38.2154   2   6  15.2686  19.2711  25.5954  10.8166 -18.7511  -2.4881   0.19    1.2
2019/03/07 11:11:04.157   32.041482518   34.816143430    59.8683   2   6   5.5700  17.4107  24.7655   9.7969 -20.7430 -11.7069   0.19    1.1
2019/03/07 11:11:05.157   32.041459356   34.816059307    71.2245   2   6   6.4151  20.1050  28.5869  11.3133 -23.9549 -13.5099   0.19    2.2
2019/03/07 11:11:06.157   32.041415213   34.815897754    92.9563   2   6   8.5518  26.8586  38.1867  15.1233 -32.0116 -18.0475   0.19    2.5
2019/03/07 11:11:07.157   32.041333771   34.815598540   133.2265   2   6  11.7877  37.0525  52.6789  20.8759 -44.1701 -24.9025   0.19    1.4
2019/03/07 11:11:08.157   32.041239812   34.816007376    27.5091   2   5  16.3245  22.3764  27.0090  13.4768 -15.9226   6.5448   0.19    1.3
2019/03/07 11:11:09.157   32.041282202   34.816161292    38.2369   2   6  11.4750  17.4173  26.5251   9.4743 -20.8857  -6.4827   0.19    1.0
2019/03/07 11:11:10.157   32.041473157   34.816110199    64.4041   2   6   6.4898  20.2845  28.8405  11.4328 -24.1691 -13.6517   0.19    1.0
2019/03/07 11:11:11.157   32.041420041   34.815914795    90.7657   2   6   8.5893  26.8953  38.2404  15.1686 -32.0565 -18.1017   0.19    1.3
2019/03/07 11:11:12.157   32.041334034   34.815597560   133.4089   2   6  11.8136  37.0131  52.6309  20.8888 -44.1268 -24.9197   0.19    1.0
2019/03/07 11:11:13.157   32.041302646   34.816147281    38.8280   2   6  15.3688  19.2939  25.5907  10.8696 -18.7459  -2.3495   0.19    1.2
2019/03/07 11:11:14.157   32.041483694   34.816143694    59.8198   2   6   5.5968  17.3976  24.7537   9.8221 -20.7318 -11.7386   0.19    1.0
2019/03/07 11:11:15.157   32.041463495   34.816069048    69.9261   2   6   6.4466  20.0833  28.5644  11.3394 -23.9339 -13.5430   0.19    1.0
2019/03/07 11:11:16.157   32.041430880   34.815948472    86.1487   2   6   8.5928  26.8169  38.1389  15.1510 -31.9678 -18.0832   0.19    1.0
2019/03/07 11:11:17.157   32.041376970   34.815749910   112.8810   2   6  11.8360  36.9623  52.5666  20.8953 -44.0699 -24.9293   0.19    1.1
2019/03/07 11:11:18.157   32.041331901   34.816145092    40.0933   2   6  15.4198  19.3055  25.5885  10.8965 -18.7431  -2.2751   0.19    1.1
2019/03/07 11:11:19.157   32.041491567   34.816165800    56.8125   2   6   5.6107  17.3910  24.7478   9.8346 -20.7262 -11.7544   0.19    1.2
2019/03/07 11:11:20.157   32.041478356   34.816116118    63.5259   2   6   6.4626  20.0725  28.5533  11.3523 -23.9234 -13.5593   0.19    1.1
2019/03/07 11:11:21.157   32.041457321   34.816037125    74.1504   2   6   8.6135  26.7964  38.1154  15.1648 -31.9461 -18.1008   0.19    1.7
2019/03/07 11:11:22.157   32.041423395   34.815911169    91.1090   2   6  11.8602  36.9180  52.5116  20.9051 -44.0208 -24.9428   0.19    2.5
2019/03/07 11:11:23.157   32.041345169   34.816135474    39.3710   2   6  15.4714  19.3173  25.5863  10.9236 -18.7402  -2.1970   0.19    1.4
2019/03/07 11:11:24.157   32.041496849   34.816174877    55.5501   2   6   5.6248  17.3844  24.7421   9.8471 -20.7206 -11.7700   0.19    1.2
2019/03/07 11:11:25.157   32.041482407   34.816120571    62.9269   2   6   6.4788  20.0617  28.5423  11.3651 -23.9129 -13.5754   0.19    1.1
2019/03/07 11:11:26.157   32.041450888   34.815998428    79.0197   2   6   8.6261  26.7303  38.0435  15.1587 -31.8772 -18.0984   0.19    1.7
2019/03/07 11:11:27.157   32.041387028   34.815759203   110.8997   2   6  11.8480  36.7149  52.2671  20.8381 -43.7978 -24.8728   0.19    1.4
2019/03/07 11:11:28.157   32.040657853   34.815708492   287.6775   2   4   9.7596  30.1862   7.9655 -16.0255 -10.6279   5.6262   0.19    2.1
2019/03/07 11:11:29.157   32.040774676   34.815251224   294.6292   1   5   7.9359  24.8923   5.2543 -12.8721  -8.1945   6.1188   0.19    5.6
2019/03/07 11:11:30.157   32.040995213   34.814388033   304.6313   2  11   5.5082  15.1906   6.0425  -6.7891  -3.9566   4.0122   0.19    1.3
2019/03/07 11:11:31.157   32.041030983   34.814215230   302.5452   2  12   1.7589   2.7951   2.6668  -1.8469   1.2073  -1.9176   0.19    1.0
2019/03/07 11:11:32.157   32.041034513   34.814256176   296.7398   2  12   0.4670   0.3441   1.0873   0.3487  -0.4824  -0.5531   0.19    1.2
2019/03/07 11:11:33.157   32.041051434   34.814263336   283.9900   2  10   0.4266   0.2710   0.5359   0.3349  -0.3378  -0.4191   0.19    1.4
2019/03/07 11:11:34.157   32.041049884   34.814262322   283.8010   2  10   0.4119   0.2595   0.4895   0.3238  -0.3197  -0.4003   0.19    1.0
2019/03/07 11:11:35.157   32.041047980   34.814261109   283.9985   2  10   0.3993   0.2505   0.4724   0.3136  -0.3068  -0.3876   0.19    1.2
2019/03/07 11:11:36.157   32.041046071   34.814259776   284.2541   2  10   0.3877   0.2428   0.4616   0.3044  -0.2968  -0.3761   0.19    1.4
2019/03/07 11:11:37.157   32.041044134   34.814258397   284.5463   2  10   0.3770   0.2359   0.4528   0.2959  -0.2882  -0.3654   0.19    1.6
2019/03/07 11:11:38.157   32.041042345   34.814257042   284.8230   2  10   0.3670   0.2296   0.4449   0.2879  -0.2803  -0.3554   0.19    1.6
2019/03/07 11:11:39.157   32.041040763   34.814255856   285.0819   2  10   0.3577   0.2238   0.4373   0.2805  -0.2729  -0.3461   0.19    1.5
2019/03/07 11:11:40.157   32.041039178   34.814254680   285.3443   2  10   0.3489   0.2183   0.4302   0.2735  -0.2660  -0.3373   0.19    1.4
2019/03/07 11:11:41.157   32.041037321   34.814253312   285.6453   2  11   0.3398   0.2125   0.4224   0.2662  -0.2585  -0.3279   0.19    1.3
2019/03/07 11:11:42.157   32.041035888   34.814252217   285.8934   2  11   0.3316   0.2074   0.4155   0.2597  -0.2519  -0.3195   0.19    1.2
2019/03/07 11:11:43.157   32.041034522   34.814251214   286.1470   2  12   0.3239   0.2025   0.4090   0.2535  -0.2455  -0.3115   0.19    1.1
2019/03/07 11:11:44.157   32.041033339   34.814250324   286.3727   2  12   0.3165   0.1979   0.4027   0.2476  -0.2395  -0.3039   0.19    1.1
2019/03/07 11:11:45.157   32.041032404   34.814249618   286.5659   2  11   0.3096   0.1935   0.3969   0.2420  -0.2338  -0.2967   0.19    1.1
2019/03/07 11:11:46.157   32.041031588   34.814249024   286.7529   2  11   0.3029   0.1894   0.3913   0.2367  -0.2283  -0.2899   0.19    1.1
2019/03/07 11:11:47.157   32.041030998   34.814248591   286.9181   2  11   0.2966   0.1854   0.3859   0.2316  -0.2231  -0.2833   0.19    1.0
2019/03/07 11:11:48.157   32.041030524   34.814248219   287.0702   2  11   0.2905   0.1816   0.3808   0.2268  -0.2180  -0.2769   0.19    1.0
2019/03/07 11:11:49.157   32.041030059   34.814247871   287.2308   2  12   0.2846   0.1779   0.3757   0.2221  -0.2132  -0.2708   0.19    1.0
2019/03/07 11:11:50.157   32.041029574   34.814247526   287.3891   2  11   0.2790   0.1744   0.3709   0.2176  -0.2085  -0.2649   0.19    1.1
2019/03/07 11:11:51.157   32.041029007   34.814247088   287.5659   2  12   0.2736   0.1710   0.3661   0.2132  -0.2039  -0.2591   0.19    1.0
2019/03/07 11:11:52.157   32.041028471   34.814246666   287.7470   2  12   0.2683   0.1678   0.3615   0.2090  -0.1995  -0.2536   0.19    1.0
2019/03/07 11:11:53.157   32.041027802   34.814246162   287.9484   2  12   0.2633   0.1646   0.3570   0.2050  -0.1952  -0.2482   0.19    1.0
2019/03/07 11:11:54.157   32.041027090   34.814245634   288.1478   2  12   0.2584   0.1616   0.3526   0.2011  -0.1911  -0.2429   0.19    1.1
2019/03/07 11:11:55.157   32.041026311   34.814245049   288.3590   2  12   0.2536   0.1586   0.3483   0.1973  -0.1870  -0.2378   0.19    1.3
2019/03/07 11:11:56.157   32.041025649   34.814244570   288.5543   2  12   0.2490   0.1558   0.3440   0.1936  -0.1831  -0.2329   0.19    1.4
2019/03/07 11:11:57.157   32.041025053   34.814244141   288.7453   2  12   0.2445   0.1530   0.3399   0.1900  -0.1793  -0.2281   0.19    1.4
2019/03/07 11:11:58.157   32.041024397   34.814243665   288.9446   2  12   0.2402   0.1503   0.3358   0.1865  -0.1756  -0.2233   0.19    1.3
2019/03/07 11:11:59.157   32.041023895   34.814243305   289.1325   2  12   0.2359   0.1477   0.3318   0.1831  -0.1719  -0.2188   0.19    1.3
2019/03/07 11:12:00.157   32.041023563   34.814243045   289.3041   2  12   0.2318   0.1452   0.3278   0.1798  -0.1684  -0.2143   0.19    1.2
2019/03/07 11:12:01.157   32.041023293   34.814242858   289.4688   2  11   0.2279   0.1428   0.3241   0.1767  -0.1651  -0.2101   0.19    1.4
2019/03/07 11:12:02.157   32.041023012   34.814242648   289.6361   2  11   0.2241   0.1405   0.3204   0.1737  -0.1618  -0.2060   0.19    1.3
2019/03/07 11:12:03.157   32.041022745   34.814242448   289.8124   2  11   0.2204   0.1383   0.3168   0.1708  -0.1586  -0.2020   0.19    1.2
2019/03/07 11:12:04.157   32.041022524   34.814242292   289.9814   2  11   0.2168   0.1360   0.3132   0.1679  -0.1555  -0.1980   0.19    1.1
2019/03/07 11:12:05.157   32.041022324   34.814242152   290.1588   2  11   0.2132   0.1339   0.3096   0.1650  -0.1524  -0.1941   0.19    1.0
2019/03/07 11:12:06.157   32.041022158   34.814242041   290.3332   2  11   0.2098   0.1318   0.3060   0.1623  -0.1494  -0.1903   0.19    1.1
2019/03/07 11:12:07.157   32.041021956   34.814241886   290.5122   2  11   0.2064   0.1297   0.3025   0.1596  -0.1465  -0.1866   0.19    1.2
2019/03/07 11:12:08.157   32.041021782   34.814241767   290.6971   2  11   0.2030   0.1277   0.2990   0.1569  -0.1436  -0.1829   0.19    1.3
2019/03/07 11:12:09.157   32.041021560   34.814241601   290.8898   2  11   0.1998   0.1258   0.2955   0.1543  -0.1408  -0.1793   0.19    1.3
2019/03/07 11:12:10.157   32.041021365   34.814241466   291.0813   2  11   0.1966   0.1239   0.2920   0.1518  -0.1380  -0.1758   0.19    1.3
2019/03/07 11:12:11.157   32.041021176   34.814241326   291.2646   2  11   0.1935   0.1220   0.2886   0.1493  -0.1353  -0.1723   0.19    1.3
2019/03/07 11:12:12.157   32.041021036   34.814241235   291.4473   2  11   0.1904   0.1202   0.2851   0.1469  -0.1326  -0.1689   0.19    1.3
2019/03/07 11:12:13.157   32.041020922   34.814241156   291.6266   2  11   0.1874   0.1184   0.2817   0.1445  -0.1300  -0.1656   0.19    1.3
2019/03/07 11:12:14.157   32.041020756   34.814241052   291.8199   2  11   0.1845   0.1166   0.2784   0.1422  -0.1274  -0.1623   0.19    1.2
2019/03/07 11:12:15.157   32.041020552   34.814240896   292.0251   2  11   0.1816   0.1149   0.2750   0.1399  -0.1249  -0.1591   0.19    1.1
2019/03/07 11:12:16.157   32.041020341   34.814240748   292.2281   2  11   0.1788   0.1133   0.2717   0.1376  -0.1224  -0.1560   0.19    1.0
2019/03/07 11:12:17.157   32.041020160   34.814240621   292.4227   2  11   0.1760   0.1117   0.2684   0.1355  -0.1200  -0.1529   0.19    1.0
2019/03/07 11:12:18.157   32.041019912   34.814240433   292.6251   2  11   0.1733   0.1101   0.2651   0.1333  -0.1176  -0.1499   0.19    1.0
2019/03/07 11:12:19.157   32.041019767   34.814240332   292.8168   2  11   0.1707   0.1085   0.2619   0.1312  -0.1153  -0.1469   0.19    1.0
2019/03/07 11:12:20.157   32.041019543   34.814240181   293.0176   2  11   0.1681   0.1070   0.2586   0.1292  -0.1130  -0.1441   0.19    1.1
2019/03/07 11:12:21.157   32.041019362   34.814240046   293.2155   2  11   0.1655   0.1055   0.2555   0.1271  -0.1108  -0.1412   0.19    1.1
2019/03/07 11:12:22.157   32.041019088   34.814239836   293.4211   2  11   0.1630   0.1041   0.2523   0.1252  -0.1087  -0.1384   0.19    1.2
2019/03/07 11:12:23.157   32.041019002   34.814239764   293.6044   2  11   0.1606   0.1027   0.2491   0.1232  -0.1065  -0.1357   0.19    1.2
2019/03/07 11:12:24.157   32.041018919   34.814239682   293.7829   2  11   0.1582   0.1013   0.2460   0.1214  -0.1044  -0.1331   0.19    1.2
2019/03/07 11:12:25.157   32.041018819   34.814239623   293.9569   2  11   0.1558   0.1000   0.2430   0.1195  -0.1024  -0.1305   0.19    1.2
2019/03/07 11:12:26.157   32.041018722   34.814239545   294.1449   2  11   0.1535   0.0987   0.2399   0.1177  -0.1004  -0.1279   0.19    1.2
2019/03/07 11:12:27.157   32.041018624   34.814239463   294.3256   2  11   0.1513   0.0974   0.2369   0.1159  -0.0985  -0.1254   0.19    1.2
2019/03/07 11:12:28.157   32.041018427   34.814239333   294.5087   2  11   0.1491   0.0961   0.2339   0.1142  -0.0966  -0.1230   0.19    1.2
2019/03/07 11:12:29.157   32.041018257   34.814239202   294.6923   2  11   0.1469   0.0949   0.2309   0.1125  -0.0947  -0.1206   0.19    1.1
2019/03/07 11:12:30.157   32.041018061   34.814239054   294.8749   2  11   0.1448   0.0937   0.2280   0.1108  -0.0929  -0.1183   0.19    1.1
2019/03/07 11:12:31.157   32.041017994   34.814238990   295.0360   2  11   0.1427   0.0925   0.2251   0.1092  -0.0912  -0.1160   0.19    1.1
2019/03/07 11:12:32.157   32.041017978   34.814238951   295.1910   2  11   0.1407   0.0914   0.2223   0.1076  -0.0894  -0.1138   0.19    1.0
2019/03/07 11:12:33.157   32.041017993   34.814238972   295.3468   2  12   0.1385   0.0902   0.2193   0.1058  -0.0876  -0.1114   0.19    1.0
2019/03/07 11:12:34.157   32.041018055   34.814239082   295.4896   2  11   0.1364   0.0891   0.2165   0.1042  -0.0859  -0.1092   0.19    1.1
2019/03/07 11:12:35.157   32.041018134   34.814239115   295.6212   2  11   0.1344   0.0880   0.2139   0.1026  -0.0843  -0.1071   0.19    1.1
2019/03/07 11:12:36.157   32.041018277   34.814239199   295.7523   2  10   0.1325   0.0869   0.2113   0.1012  -0.0828  -0.1052   0.19    1.1
2019/03/07 11:12:37.157   32.041018392   34.814239299   295.8767   2  10   0.1307   0.0860   0.2088   0.0997  -0.0813  -0.1033   0.19    1.1
2019/03/07 11:12:38.157   32.041018485   34.814239332   296.0075   2  11   0.1289   0.0849   0.2063   0.0983  -0.0798  -0.1014   0.19    1.2
2019/03/07 11:12:39.157   32.041018522   34.814239358   296.1543   2  11   0.1272   0.0840   0.2038   0.0970  -0.0784  -0.0995   0.19    1.2
2019/03/07 11:12:40.157   32.041018599   34.814239415   296.2983   2  11   0.1254   0.0830   0.2011   0.0956  -0.0770  -0.0977   0.19    1.2
2019/03/07 11:12:41.157   32.041018602   34.814239402   296.4498   2  11   0.1237   0.0821   0.1985   0.0943  -0.0756  -0.0959   0.19    1.2
2019/03/07 11:12:42.157   32.041018622   34.814239492   296.5705   2  10   0.1224   0.0813   0.1959   0.0932  -0.0742  -0.0941   0.19    1.0
2019/03/07 11:12:43.157   32.041018642   34.814239501   296.7092   2  10   0.1211   0.0806   0.1934   0.0921  -0.0729  -0.0924   0.19    1.0
2019/03/07 11:12:44.157   32.041018670   34.814239557   296.8332   2  10   0.1197   0.0799   0.1910   0.0911  -0.0717  -0.0908   0.19    1.0
2019/03/07 11:12:45.157   32.041018751   34.814239637   296.9558   2  10   0.1184   0.0792   0.1886   0.0900  -0.0705  -0.0892   0.19    1.0
2019/03/07 11:12:46.157   32.041018818   34.814239690   297.0717   2  10   0.1171   0.0785   0.1862   0.0890  -0.0693  -0.0877   0.19    1.0
2019/03/07 11:12:47.157   32.041018878   34.814239749   297.1908   2  10   0.1159   0.0778   0.1838   0.0880  -0.0682  -0.0862   0.19    1.0
2019/03/07 11:12:48.157   32.041018980   34.814239828   297.2973   2  10   0.1146   0.0771   0.1815   0.0870  -0.0671  -0.0848   0.19    1.0
2019/03/07 11:12:49.157   32.041019037   34.814239891   297.4048   2  10   0.1134   0.0765   0.1792   0.0861  -0.0660  -0.0833   0.19    1.1
2019/03/07 11:12:50.157   32.041019135   34.814239961   297.5070   2  10   0.1122   0.0758   0.1770   0.0851  -0.0649  -0.0819   0.19    1.1
2019/03/07 11:12:51.157   32.041019273   34.814240065   297.6109   2  10   0.1110   0.0752   0.1747   0.0842  -0.0639  -0.0806   0.19    1.1
2019/03/07 11:12:52.157   32.041019339   34.814240145   297.7193   2  11   0.1097   0.0746   0.1725   0.0832  -0.0628  -0.0791   0.19    1.1
2019/03/07 11:12:53.157   32.041019420   34.814240206   297.8206   2  11   0.1084   0.0739   0.1704   0.0822  -0.0618  -0.0778   0.19    1.2
2019/03/07 11:12:54.157   32.041019499   34.814240273   297.9195   2  11   0.1072   0.0733   0.1682   0.0813  -0.0608  -0.0765   0.19    1.1
2019/03/07 11:12:55.157   32.041019559   34.814240336   298.0174   2  11   0.1061   0.0727   0.1661   0.0804  -0.0598  -0.0752   0.19    1.1
2019/03/07 11:12:56.157   32.041019598   34.814240394   298.1148   2  11   0.1049   0.0721   0.1641   0.0795  -0.0589  -0.0740   0.19    1.1
2019/03/07 11:12:57.157   32.041019641   34.814240481   298.2088   2  10   0.1037   0.0716   0.1621   0.0786  -0.0580  -0.0727   0.19    1.0
2019/03/07 11:12:58.157   32.041019684   34.814240534   298.3020   2  10   0.1026   0.0710   0.1602   0.0777  -0.0571  -0.0716   0.19    1.0
2019/03/07 11:12:59.157   32.041019759   34.814240589   298.3896   2  10   0.1016   0.0705   0.1584   0.0769  -0.0563  -0.0706   0.19    1.0
2019/03/07 11:13:00.157   32.041019842   34.814240620   298.4673   2  11   0.1005   0.0699   0.1566   0.0760  -0.0556  -0.0696   0.19    1.1
2019/03/07 11:13:01.157   32.041019832   34.814240622   298.5692   2  11   0.0994   0.0693   0.1549   0.0752  -0.0548  -0.0685   0.19    1.1
2019/03/07 11:13:02.157   32.041019877   34.814240661   298.6675   2  11   0.0984   0.0688   0.1530   0.0744  -0.0539  -0.0674   0.19    1.1
2019/03/07 11:13:03.157   32.041019938   34.814240733   298.7547   2  11   0.0973   0.0683   0.1511   0.0736  -0.0531  -0.0663   0.19    1.1
2019/03/07 11:13:04.157   32.041020008   34.814240789   298.8490   2  11   0.0963   0.0678   0.1492   0.0728  -0.0523  -0.0652   0.19    1.0
2019/03/07 11:13:05.157   32.041020106   34.814240842   298.9392   2  11   0.0953   0.0673   0.1474   0.0720  -0.0516  -0.0642   0.19    1.0
2019/03/07 11:13:06.157   32.041020155   34.814240915   299.0267   2  11   0.0943   0.0668   0.1456   0.0712  -0.0508  -0.0632   0.19    1.1
2019/03/07 11:13:07.157   32.041020246   34.814240948   299.1135   2  11   0.0933   0.0663   0.1439   0.0705  -0.0501  -0.0622   0.19    1.1
2019/03/07 11:13:08.157   32.041020318   34.814241018   299.1943   2  11   0.0923   0.0658   0.1422   0.0697  -0.0494  -0.0613   0.19    1.1
2019/03/07 11:13:09.157   32.041020395   34.814241077   299.2773   2  12   0.0914   0.0654   0.1405   0.0690  -0.0487  -0.0603   0.19    1.1
2019/03/07 11:13:10.157   32.041020454   34.814241164   299.3515   2  11   0.0904   0.0650   0.1388   0.0682  -0.0480  -0.0594   0.19    1.1
2019/03/07 11:13:11.157   32.041020512   34.814241252   299.4202   2  11   0.0895   0.0646   0.1372   0.0675  -0.0473  -0.0586   0.19    1.1
2019/03/07 11:13:12.157   32.041020574   34.814241281   299.4803   2  11   0.0886   0.0641   0.1357   0.0669  -0.0468  -0.0578   0.19    1.0
2019/03/07 11:13:13.157   32.041020623   34.814241373   299.5428   2  11   0.0878   0.0637   0.1343   0.0662  -0.0462  -0.0570   0.19    1.0
2019/03/07 11:13:14.157   32.041020688   34.814241438   299.6045   2  11   0.0869   0.0633   0.1329   0.0655  -0.0457  -0.0563   0.19    1.1
2019/03/07 11:13:15.157   32.041020753   34.814241486   299.6699   2  11   0.0860   0.0629   0.1316   0.0649  -0.0452  -0.0556   0.19    1.1
2019/03/07 11:13:16.157   32.041020812   34.814241567   299.7388   2  11   0.0852   0.0625   0.1302   0.0642  -0.0446  -0.0549   0.19    1.2
2019/03/07 11:13:17.157   32.041020893   34.814241624   299.7941   2  11   0.0844   0.0621   0.1288   0.0636  -0.0441  -0.0542   0.19    1.2
2019/03/07 11:13:18.157   32.041020941   34.814241666   299.8517   2  11   0.0835   0.0618   0.1275   0.0629  -0.0436  -0.0535   0.19    1.3
